latitud;longitud;direccion;B93;B95;B97;DIESEL;keresone;marca;
-35.4404724;-71.64729979999998;UNO NORTE 2315, Talca;766.0;798.0;836.0;573.0;657.0;ABASTIBLE;
-34.99255503938055;-71.24718624243314;Av. 2 Sur esq. 7 Oriente 1410, Talca;766.0;798.0;832.0;573.0;656.0;ABASTIBLE;
-34.96501090000002;-71.24928608413086;Avenida Balmaceda 1900, Curicó;825.0;855.0;885.0;607.0;695.0;AUTOGASCO;
-35.52727341151067;-71.5038138628006;Ignacio Carrera Pinto 818, Parral;714.0;768.0;814.0;562.0;641.0;COPEC;
-35.53680114456449;-71.49030089378357;HUAMACHUCO 1261, San Clemente;769.0;808.0;871.0;565.0;673.0;HN;
-35.84552898797174;-72.63317531459961;AVENIDA HUAMACHUCO 210, San Clemente;770.0;808.0;871.0;565.0;674.0;Sin Bandera;
-35.42829497467605;-71.64147019386291;Av. Carlos Schorr 355, Talca;784.0;813.0;829.0;570.0;637.0;HN;
-35.96598905872831;-72.32506334781647;MAIPU, SAN MARTÍN 0, Cauquenes;765.0;796.0;861.0;571.0;667.0;COPEC;
-35.962159519179004;-72.33106076717377;Maipú 546, Cauquenes;773.0;805.0;861.0;571.0;667.0;SHELL;
-35.73426839662613;-72.53310084342957;Avenida Dr. Meza 1520, Cauquenes;773.0;805.0;861.0;571.0;673.0;Sin Bandera;
-35.42816384003634;-71.66521847248077;CAMINO LONGITUDINAL SUR KM 255 0, Talca;786.0;818.0;836.0;573.0;675.0;COPEC;
-35.42530068051496;-71.658775806427;2 SUR, ESQ. 1 ORIENTE 841, Talca;769.0;800.0;837.0;573.0;649.0;COPEC;
-35.43216772143182;-71.64806842803955;6 ORIENTE 1274, Talca;766.0;798.0;836.0;573.0;655.0;COPEC;
-35.42904243804531;-71.67238533496857;12 ORIENTE 836, Talca;766.0;798.0;836.0;573.0;653.0;COPEC;
-35.4480342;-71.68989019999998;AV. CARLOS SCHORR 83, Talca;766.0;798.0;836.0;573.0;653.0;COPEC;
-35.426872021772866;-71.6429272462799;Avenida Colín 0996, Talca;766.0;798.0;836.0;573.0;655.0;COPEC;
-35.42999533450357;-71.63334310054779;2 Norte 2310, Talca;766.0;798.0;836.0;573.0;656.0;Punto Sur;
-35.43509619858289;-71.6513729095459;1 norte esq. 18 oriente 2255, Talca;766.0;798.0;836.0;573.0;657.0;PETROBRAS;
-35.4346545487818;-71.62941255026243;11 Oriente  7 sur  501, Talca;766.0;798.0;832.0;573.0;656.0;PETROBRAS;
-35.441444;-71.6765075;Avda. San Miguel 3210, Talca;766.0;798.0;836.0;573.0;653.0;SHELL;
-35.422253817308906;-71.65051460266113;Avda. Ignacio Carrera Pinto 482, Talca;766.0;798.0;836.0;573.0;653.0;SHELL;
-35.43797212173567;-71.68229341506958;Dieciocho Oriente 400, Talca;766.0;798.0;836.0;573.0;673.0;Sin Bandera;
-35.427044815759324;-71.6516786813736;Villa Los Tilos, Sitios 14-15- 16, Talca;766.0;798.0;836.0;573.0;655.0;SOCORRO;
-35.379345074697625;-71.60164475440979;Antonio Varas 1090, Cauquenes;771.0;799.0;839.0;573.0;670.0;COPEC;
-36.14402201867033;-71.83449804782867;AVENIDA LIRCAY 2820, Talca;775.0;815.0;865.0;575.0;669.0;Sin Bandera;
-35.42415975958403;-71.65946245193481;7 Oriente esq. 9 Norte  0, Talca;775.0;804.0;864.0;576.0;681.0;SHELL;
-35.43423514993709;-71.630859375;Cinco Oriente 1360, Talca;774.0;806.0;843.0;576.0;658.0;SHELL;
-35.39336190577475;-71.80319666862488;Avenida San Miguel 3040, Talca;774.0;806.0;843.0;576.0;658.0;Sin Bandera;
-35.59581815942163;-71.7060662479492;BUIN, ESQ. DIECIOCHO    395, Parral;773.0;805.0;868.0;576.0;641.0;Mimbral;
-35.59949659113213;-71.73213958740234;Balmaceda 390, Parral;778.0;813.0;867.0;577.0;642.0;SHELL;
-35.84366481044682;-71.60817861557007;Chorrillos 1715, San Javier;800.0;830.0;860.0;577.0;677.0;COPEC;
-35.84539549165481;-71.59571707248688;Avda. Le?n Bustos  1051, Linares;790.0;814.0;840.0;578.0;669.0;COPEC;
-35.84451276198858;-71.604562997818;KURT MOLLER, ESQ. CHACABUCO               00, Linares;790.0;814.0;840.0;578.0;650.0;COPEC;
-35.83920;-71.62434;AV. ANIBAL LEON BUSTOS 047, Linares;790.0;814.0;840.0;578.0;664.0;ATT;
-35.84256028561304;-71.61386489868164;Avenida Brasil 722, Linares;790.0;814.0;840.0;578.0;650.0;SHELL;
-35.84695655110228;-71.59088909626007;Avda. Anibal León Bustos 0825, Linares;790.0;814.0;840.0;578.0;669.0;SHELL;
-35.84627386314676;-71.58777236938476;Av. Brasil 570, Linares;790.0;814.0;840.0;578.0;650.0;SOCORRO;
-35.595906716452134;-71.72935009002686;CHORRILLOS 1398, San Javier;789.0;815.0;855.0;579.0;657.0;COPEC;
-35.60076151468326;-71.7081069946289;BALMACEDA, ESQ. CHORRILLOS 0, San Javier;795.0;825.0;855.0;579.0;657.0;HN;
-35.650316;-71.6953082;Acceso Norte Retiro Km 0,2  0, Retiro;795.0;825.0;880.0;581.0;690.0;COPEC;
-35.67612791546993;-71.7438742518425;AV. ABATE MOLINA 700, Villa Alegre;796.0;828.0;859.0;581.0;658.0;HN;
-35.69860591351504;-71.41411542892456;7 Abril 2021, Molina;796.0;825.0;861.0;585.0;620.0;COPEC;
-35.700797168540035;-71.4074581861496;ADOLFO NOVOA 120, Colbún;813.0;843.0;871.0;585.0;646.0;COPEC;
-35.3643721471106;-72.40169405937195;Avda. Enrique Mac-Iver 790, Constitución;813.0;843.0;871.0;586.0;662.0;COPEC;
-35.32729093823085;-72.40898430347443; OHIGGINS 1240, Constitución;817.0;851.0;885.0;586.0;665.0;TERPEL;
-35.11357011117007;-71.28217220306396;QUECHEREGUAS                    1616, Molina;817.0;851.0;891.0;588.0;652.0;COPEC;
-35.109085281681565;-71.2778753042221;INDEPENDENCIA S/N, ESQ. L. C. MARTINEZ       1513, Molina;789.0;838.0;891.0;588.0;645.0;HN;
-35.11359863424678;-71.28340601921081;Luis Cruz Martínez 1999, Molina;784.0;837.0;891.0;588.0;645.0;SHELL;
-34.97601909542351;-71.26181960105896;Luis Cruz Martinez 1598, Molina;789.0;838.0;891.0;588.0;635.0;COPEC;
-36.13414018244484;-71.80796027183533;Las Toscas, Km.10 0, Yerbas Buenas;816.0;856.0;890.0;588.0;669.0;COPEC;
-34.867291;-71.16903;AV. COMALLE, ESQ. ARTURO PRAT 196, Teno;790.0;814.0;840.0;599.0;667.0;FACAZ;
-34.976366344040755;-71.8025529384613;AV. PRAT                         425, Hualañé;807.0;846.0;898.0;600.0;658.0;SHELL;
-34.98324507961289;-71.99080109596252;Arturo Prat 197, Hualañé;822.0;860.0;898.0;600.0;658.0;COPEC;
-35.38096774048229;-71.56494140625;F. FREIRE 681, Curicó;822.0;860.0;898.0;601.0;657.0;COPEC;
-35.282179;-71.259902;OPAZO Nº 36,  CUMPEO 36, Río Claro;808.0;842.0;896.0;604.0;657.0;FACAZ;
-34.99175369350489;-71.2289571762085;MANSO DE VELASCO 215, Curicó;829.0;855.0;885.0;607.0;661.0;COPEC;
-34.98333;-71.23333;LONGITUDINAL SUR KM 190, A.NEGRAS 0, Curicó;825.0;855.0;885.0;607.0;661.0;COPEC;
-34.97641469499728;-71.24488949775696;CARMEN, C. HENRIQUEZ               890, Curicó;825.0;855.0;885.0;607.0;656.0;COPEC;
-34.94950517452052;-71.18392288684845;AV. FREIRE 681, Curicó;819.0;849.0;879.0;607.0;657.0;COPEC;
-35.0187328063691;-71.24771118164062;Manso de Velascoesq. Argomedo 423, Curicó;812.0;845.0;882.0;607.0;658.0;SHELL;
-34.9856755745284;-71.23452007770538;Camilo Henriquez 7, Curicó;817.0;847.0;887.0;607.0;656.0;FACAZ;
-34.975848;-71.2199;Avenida  Balmaceda 0111, Curicó;825.0;855.0;885.0;607.0;737.0;SHELL;
-35.00362735690096;-71.23957872390747;Av. Alessandri 1210, Curicó;825.0;855.0;885.0;607.0;680.0;SHELL;
-34.8764959608218;-71.14471435546875;Ramón Freire 200, Romeral;812.0;845.0;885.0;607.0;647.0;SHELL;
-35.963627;-71.683125;DIEGO PORTALES 05, Rauco;812.0;845.0;882.0;621.0;707.0;PETROBRAS;
-35.962544296494755;-71.68070467130127;Uno Sur  391, Longaví;821.0;865.0;908.0;634.0;715.0;Sin Bandera;
